{
  "ar-clarin":      { "lat": -34.6037, "lon": -58.3816, "name": "Clarín",            "country": "AR" },
  "ar-lanacion":    { "lat": -34.6037, "lon": -58.3816, "name": "La Nación",         "country": "AR" },
  "ar-pagina12":    { "lat": -34.6037, "lon": -58.3816, "name": "Página/12",         "country": "AR" },
  "br-folha":       { "lat": -23.5505, "lon": -46.6333, "name": "Folha de S.Paulo",  "country": "BR" },
  "br-globo":       { "lat": -22.9068, "lon": -43.1729, "name": "O Globo",           "country": "BR" },
  "br-estadao":     { "lat": -23.5505, "lon": -46.6333, "name": "Estadão",           "country": "BR" },
  "cl-emol":        { "lat": -33.4489, "lon": -70.6693, "name": "Emol",              "country": "CL" },
  "cl-latercera":   { "lat": -33.4489, "lon": -70.6693, "name": "La Tercera",        "country": "CL" },
  "cl-biobio":      { "lat": -36.827,  "lon": -73.0498, "name": "BioBioChile",       "country": "CL" },
  "co-eltiempo":    { "lat": 4.711,    "lon": -74.0721, "name": "El Tiempo",         "country": "CO" },
  "co-elespectador":{ "lat": 4.711,    "lon": -74.0721, "name": "El Espectador",     "country": "CO" },
  "co-semana":      { "lat": 4.711,    "lon": -74.0721, "name": "Semana",            "country": "CO" },
  "mx-eluniversal": { "lat": 19.4326,  "lon": -99.1332, "name": "El Universal",      "country": "MX" },
  "mx-reforma":     { "lat": 19.4326,  "lon": -99.1332, "name": "Reforma",           "country": "MX" },
  "mx-milenio":     { "lat": 19.4326,  "lon": -99.1332, "name": "Milenio",           "country": "MX" },
  "us-nyt":         { "lat": 40.7128,  "lon": -74.006,  "name": "NYT",               "country": "US" },
  "us-washpost":    { "lat": 38.9072,  "lon": -77.0369, "name": "Washington Post",   "country": "US" },
  "us-latimes":     { "lat": 34.0522,  "lon": -118.2437,"name": "LA Times",          "country": "US" },
  "ca-globeandmail":{ "lat": 43.6532,  "lon": -79.3832, "name": "Globe and Mail",    "country": "CA" },
  "ca-cbc":         { "lat": 43.6532,  "lon": -79.3832, "name": "CBC News",          "country": "CA" },
  "ca-nationalpost":{ "lat": 43.6532,  "lon": -79.3832, "name": "National Post",     "country": "CA" },
  "pe-elcomercio":  { "lat": -12.0464, "lon": -77.0428, "name": "El Comercio",       "country": "PE" },
  "ve-elnacional":  { "lat": 10.4806,  "lon": -66.9036, "name": "El Nacional",       "country": "VE" },
  "ec-eluniverso":  { "lat": -2.1709,  "lon": -79.9224, "name": "El Universo",       "country": "EC" },
  "bo-eldeber":     { "lat": -17.7833, "lon": -63.1822, "name": "El Deber",          "country": "BO" },
  "py-abc":         { "lat": -25.2637, "lon": -57.5759, "name": "ABC Color",         "country": "PY" },
  "uy-elpais":      { "lat": -34.9011, "lon": -56.1645, "name": "El País",           "country": "UY" }
}
